[
    {
        "coords": {
            "lat": "60.1695",
            "lon": "24.9354"
        },
        "district": "Финляндия",
        "name": "Хельсинки",
        "population": 655281,
        "subject": "Уусимаа"
    },
    {
        "coords": {
            "lat": "60.4518",
            "lon": "22.2666"
        },
        "district": "Финляндия",
        "name": "Турку",
        "population": 191000,
        "subject": "Уусимаа"
    },
    {
        "coords": {
            "lat": "60.4518",
            "lon": "24.5698"
        },
        "district": "Финляндия",
        "name": "Эспоо",
        "population": 295000,
        "subject": "Уусимаа"
    },
    {
        "coords": {
            "lat": "60.3272",
            "lon": "24.7896"
        },
        "district": "Финляндия",
        "name": "Вантаа",
        "population": 233000,
        "subject": "Уусимаа"
    },

    {
        "coords": {
            "lat": "61.0511",
            "lon": "28.1958"
        },
        "district": "Финляндия",
        "name": "Лаппеэнранта",
        "population": 72600,
        "subject": "Южная Карелия"
    },
    {
        "coords": {
            "lat": "61.1776",
            "lon": "28.7471"
        },
        "district": "Финляндия",
        "name": "Иматра",
        "population": 28400,
        "subject": "Южная Карелия"
    },
    {
        "coords": {
            "lat": "61.5831",
            "lon": "29.1066"
        },
        "district": "Финляндия",
        "name": "Париккала",
        "population": 5700,
        "subject": "Южная Карелия"
    },

    {
        "coords": {
            "lat": "61.8663",
            "lon": "27.2727"
        },
        "district": "Финляндия",
        "name": "Савонлинна",
        "population": 33700,
        "subject": "Южная Саво"
    },
    {
        "coords": {
            "lat": "61.3005",
            "lon": "27.3717"
        },
        "district": "Финляндия",
        "name": "Миккели",
        "population": 52500,
        "subject": "Южная Саво"
    },

    {
        "coords": {
            "lat": "62.2415",
            "lon": "25.7205"
        },
        "district": "Финляндия",
        "name": "Йювяскюля",
        "population": 143000,
        "subject": "Центральная Финляндия"
    },
    {
        "coords": {
            "lat": "62.1312",
            "lon": "25.7384"
        },
        "district": "Финляндия",
        "name": "Ээнекоски",
        "population": 19300,
        "subject": "Центральная Финляндия"
    },

    {
        "coords": {
            "lat": "61.4991",
            "lon": "23.7871"
        },
        "district": "Финляндия",
        "name": "Тампере",
        "population": 238000,
        "subject": "Пирканмаа"
    },
    {
        "coords": {
            "lat": "61.4738",
            "lon": "23.5115"
        },
        "district": "Финляндия",
        "name": "Лаупе",
        "population": 22400,
        "subject": "Пирканмаа"
    },

    {
        "coords": {
            "lat": "66.5039",
            "lon": "25.7294"
        },
        "district": "Финляндия",
        "name": "Рованиеми",
        "population": 63400,
        "subject": "Лапландия"
    },
    {
        "coords": {
            "lat": "67.0072",
            "lon": "26.8551"
        },
        "district": "Финляндия",
        "name": "Кемийярви",
        "population": 22000,
        "subject": "Лапландия"
    },

    {
        "coords": {
            "lat": "65.0126",
            "lon": "25.4682"
        },
        "district": "Финляндия",
        "name": "Оулу",
        "population": 206000,
        "subject": "Оулу"
    },
    {
        "coords": {
            "lat": "64.9362",
            "lon": "25.1821"
        },
        "district": "Финляндия",
        "name": "Кеми",
        "population": 22600,
        "subject": "Оулу"
    },

    {
        "coords": {
            "lat": "62.5984",
            "lon": "29.7650"
        },
        "district": "Финляндия",
        "name": "Йоэнсуу",
        "population": 76400,
        "subject": "Северная Карелия"
    },
    {
        "coords": {
            "lat": "62.2348",
            "lon": "29.5612"
        },
        "district": "Финляндия",
        "name": "Лиекса",
        "population": 21000,
        "subject": "Северная Карелия"
    },

    {
        "coords": {
            "lat": "62.8924",
            "lon": "27.6904"
        },
        "district": "Финляндия",
        "name": "Куопио",
        "population": 119000,
        "subject": "Северное Саво"
    },
    {
        "coords": {
            "lat": "63.0551",
            "lon": "27.8328"
        },
        "district": "Финляндия",
        "name": "Саарийярви",
        "population": 7930,
        "subject": "Северное Саво"
    }
]
